[{"name":"New Facility","coordinates":[-73.93695831298828,40.80250524727603],"properties":{"sector":"health"},"uuid":"ff945552dc7642f4a7b903f6"},{"name":"New Facility","coordinates":[-73.93901824951172,40.79626774258087],"properties":{"sector":"other"},"uuid":"12e44072b4d07d9eef64c1e5"},{"name":"dfdgfdgdNew Facility","coordinates":[-73.91790390014648,40.7958778790764],"properties":{"sector":"education"},"uuid":"e0447644f973b846b0defec9"},{"name":"hery","coordinates":[-73.91807556152344,40.78795015792346],"properties":{"sector":"water"},"uuid":"d4cd108fbc430571f7fa52ea"},{"name":"heyo","coordinates":[-73.94502639770508,40.8210843390845],"properties":{"sector":"education"},"uuid":"fa7cfd64c5599d3a474dfaa9"},{"name":"Poop","coordinates":[-73.94073486328125,40.8191357275374],"properties":{"sector":"health"},"uuid":"c8fa5d71739c956b6291cd37"},{"name":"MNe","coordinates":[-73.94210815429688,40.81458874464439],"properties":{"sector":"water"},"uuid":"1d818a6e0ce4fccd2943237f"},{"name":"Heyo","coordinates":[-73.93970489501953,40.80731292377169],"properties":{"sector":"other"},"uuid":"e4a77c6bedfa5093f0d1aa6a"},{"name":"field","coordinates":[-73.96133422851562,40.79327873053717],"properties":{"sector":"other"},"uuid":"ea3feb00b121a45961e333a7"},{"name":"njfgh","coordinates":[-73.94571304321289,40.78600057329813],"properties":{"sector":"water"},"uuid":"54ca80b3b87f3abc055cb847"},{"name":"sdfsd","coordinates":[-73.94536972045898,40.77898159474757],"properties":{"sector":"water"},"uuid":"54ca8019b87f3abc055cb846"},{"name":"sfgs","coordinates":[-73.94803047180176,40.802131663236295],"properties":{"sector":"other"},"uuid":"54ca7f5bb87f3abc055cb845"},{"name":"New Facility","coordinates":[-73.9460563659668,40.79938656819395],"properties":{"sector":"other"},"uuid":"54ca7f36b87f3abc055cb844"},{"name":"Church of Basketball","coordinates":[-73.9460563659668,40.79938656819395],"properties":{"sector":"other"},"uuid":"54ca7e53b87f3abc055cb843"},{"name":"New Dokomo Facility","coordinates":[-73.96243270000001,40.8138912],"properties":{"sector":"water"},"uuid":"54ca6383b87f3abc055cb842"},{"name":"Barnard College","uuid":"53582354c23e11b3b4bf6676","coordinates":[-73.9635828677952,40.8095097],"properties":{"sector":"education"}},{"name":"The Library","uuid":"53c851eeff37d9a92ffc53b5","coordinates":[-73.961924,40.808141],"properties":{"sector":"education"}},{"name":"Kent Hall","uuid":"54076d0bcabca4894e5f1ef5","coordinates":[-73.959529,40.809369],"properties":{"sector":"education"}},{"name":"SEL","uuid":"53d6b2c7ff37d9a92ffc53b7","coordinates":[-73.959588,40.809349],"properties":{"sector":"education"}},{"name":"Saint Luke's Hospital Center","uuid":"5384cf68d72e71031d1dd5e9","coordinates":[-73.961682,40.804986],"properties":{"sector":"health"}},{"name":"Public School 36","uuid":"53c81f66ff37d9a92ffc53b4","coordinates":[-73.957461,40.810658],"properties":{"sector":"education"}},{"name":"Pupin","uuid":"53c819bbf861db9730aedbbc","coordinates":[-73.961741,40.809822],"properties":{"sector":"education"}},{"name":"The Circle","uuid":"53c4037cf861db9730aedbba","coordinates":[-73.957386,40.809935],"properties":{"sector":"water"}},{"name":"Quiet Lunch Spot","uuid":"53861b1ff861db9730aedb8e","coordinates":[-73.964005,40.811308],"properties":{"sector":"health"}},{"name":"Test","uuid":"53a06a92f861db9730aedb90","coordinates":[-73.958013,40.808595],"properties":{"sector":"health"}},{"name":"Mudd Hall","uuid":"5385f175d72e71031d1dd5ee","coordinates":[-73.960025,40.809351],"properties":{"sector":"education"}},{"name":"Shapiro Center","uuid":"5385eef5d72e71031d1dd5ed","coordinates":[-73.960776,40.809655],"properties":{"sector":"water"}},{"name":"Much Hospital","uuid":"53c3edb7f861db9730aedbb7","coordinates":[-73.953802,40.809635],"properties":{"sector":"health"}},{"name":"Butler Library","uuid":"54076bebb113ee5c4ea7dacb","coordinates":[-73.95952299999999,40.809376],"properties":{"sector":"education"}},{"name":"Something Real","uuid":"53d90403ff37d9a92ffc53b8","coordinates":[-73.958373,40.80797],"properties":{"sector":"energy"}},{"name":"Butler Hall","uuid":"53cffeacff37d9a92ffc53b6","coordinates":[-73.95959599999999,40.808401],"properties":{"sector":"education"}},{"name":"Appletree Deli","uuid":"5384e562d72e71031d1dd5ea","coordinates":[-73.958845,40.809416],"properties":{"sector":"energy"}},{"name":"Uris Deli","uuid":"5384c20fd72e71031d1dd5e8","coordinates":[-73.960905,40.808888],"properties":{"sector":"health"}},{"name":"Teachers College","uuid":"537b721aa19e20b3424df923","coordinates":[-73.960314,40.810203],"properties":{"sector":"health"}},{"name":"Church Of The Master","uuid":"53e38721e1df2b796e76b7bd","coordinates":[-73.95539,40.809075],"properties":{"sector":"energy"}},{"name":"Computer Science","uuid":"53e29a70e1df2b796e76b7bc","coordinates":[-73.95993399999999,40.809054],"properties":{"sector":"education"}},{"name":"Jewish Theological Seminary","uuid":"53d94e20e1df2b796e76b7bb","coordinates":[-73.9601,40.811998],"properties":{"sector":"education"}},{"name":"Soul Saving Station","uuid":"537bc43cd583c2606e2f52df","coordinates":[-73.952064,40.809521],"properties":{"sector":"health"}},{"name":"Another Hospital","uuid":"53bd93c2f861db9730aedb92","coordinates":[-73.948888,40.809635],"properties":{"sector":"health"}},{"name":"The City College of New York","uuid":"53582354c23e11b3b4bf6674","coordinates":[-73.9508851686094,40.8181092],"properties":{"sector":"education"}},{"name":"Lenox Hill Hospital","uuid":"535823222b7a61adb4ed67c1","coordinates":[-73.9616613,40.7732745],"properties":{"sector":"health"}},{"name":"Middle School M243 Center School","uuid":"535823434566f3b1b43b0118","coordinates":[-73.9737421,40.7849411],"properties":{"sector":"education"}},{"name":"Dinosaur BBQ","uuid":"53c40484f861db9730aedbbb","coordinates":[-73.959488,40.81631],"properties":{"sector":"health"}},{"name":"Some Hospital","uuid":"53c3f064f861db9730aedbb8","coordinates":[-73.94712899999999,40.80809199999999],"properties":{"sector":"health"}},{"name":"York Preparatory School","uuid":"535823434566f3b1b43b0110","coordinates":[-73.9794715,40.7738428],"properties":{"sector":"education"}},{"name":"Marymount Manhattan College","uuid":"53582354c23e11b3b4bf66a5","coordinates":[-73.9597556,40.7687028],"properties":{"sector":"education"}},{"name":"College Avenue","uuid":"53582354c23e11b3b4bf66a1","coordinates":[-73.915957,40.82735],"properties":{"sector":"education"}},{"name":"137th Street-City College (1)","uuid":"53582354c23e11b3b4bf6689","coordinates":[-73.9541709,40.8214029],"properties":{"sector":"education"}},{"name":"Boricua College","uuid":"53582354c23e11b3b4bf6686","coordinates":[-73.9461111,40.8333333],"properties":{"sector":"education"}},{"name":"New York Institute of Technology","uuid":"53582354c23e11b3b4bf6685","coordinates":[-73.9824042,40.7696925],"properties":{"sector":"education"}},{"name":"Hunter College Campus Schools","uuid":"53582354c23e11b3b4bf667b","coordinates":[-73.9538872875852,40.7858194],"properties":{"sector":"education"}},{"name":"John Jay College of Criminal Justice","uuid":"53582354c23e11b3b4bf6679","coordinates":[-73.9881946,40.7703792],"properties":{"sector":"education"}},{"name":"City University of New York Hunter College","uuid":"53582354c23e11b3b4bf6677","coordinates":[-73.9642966313072,40.76817505],"properties":{"sector":"education"}},{"name":"M565 Urban Academy Laboratory High School","uuid":"535823444566f3b1b43b013a","coordinates":[-73.9595892,40.7654825],"properties":{"sector":"education"}},{"name":"New York Institute of Technology Manhattan Campus","uuid":"535823444566f3b1b43b013c","coordinates":[-73.9825,40.7694444],"properties":{"sector":"education"}},{"name":"Public School 69","uuid":"535823444566f3b1b43b0135","coordinates":[-73.9795833,40.7634348],"properties":{"sector":"education"}},{"name":"Ella Baker School","uuid":"535823444566f3b1b43b012a","coordinates":[-73.9597364,40.7653352],"properties":{"sector":"education"}},{"name":"M459 Manhattan International High School","uuid":"535823444566f3b1b43b0122","coordinates":[-73.9595921,40.7655687],"properties":{"sector":"education"}},{"name":"Public School 183","uuid":"535823444566f3b1b43b011d","coordinates":[-73.9577778,40.7638889],"properties":{"sector":"education"}},{"name":"Mount Sinai Dispensary (historical)","uuid":"535823222b7a61adb4ed67df","coordinates":[-73.9641697,40.7672475],"properties":{"sector":"health"}},{"name":"Hospital for Special Surgery","uuid":"535823222b7a61adb4ed67d3","coordinates":[-73.9540881168215,40.7656963],"properties":{"sector":"health"}},{"name":"New York Presbyterian Hospital","uuid":"535823222b7a61adb4ed67d2","coordinates":[-73.9550117,40.7643775],"properties":{"sector":"health"}},{"name":"Ewing Memorial Hospital","uuid":"535823222b7a61adb4ed67cd","coordinates":[-73.9570783,40.7645704],"properties":{"sector":"health"}},{"name":"Cornerstone Medical Arts Hospital","uuid":"535823222b7a61adb4ed67cc","coordinates":[-73.9754995,40.7639359],"properties":{"sector":"health"}},{"name":"William J Syms Operating Theater Roosevelt Hospital (historical)","uuid":"535823222b7a61adb4ed67cb","coordinates":[-73.9852381,40.7692012],"properties":{"sector":"health"}},{"name":"Manhattan Eye Ear and Throat Hospital","uuid":"535823222b7a61adb4ed67c3","coordinates":[-73.9635141,40.764316],"properties":{"sector":"health"}},{"name":"Memorial Sloan - Kettering Cancer Center","uuid":"535823222b7a61adb4ed67c2","coordinates":[-73.9561118,40.7640249],"properties":{"sector":"health"}},{"name":"Vanderbilt Clinic / College of Dental Medicine","uuid":"535822efeb98f7a8b4b022f5","coordinates":[-73.9407040193926,40.8409991],"properties":{"sector":"health"}}]
